[
  {
    "id": "SCP01",
    "nombre": "Oficinas IERSE",
    "ubicacion": "Sensor de prueba ubicado en las oficinas del IERSE",
    "lat": -2.918496,
    "lon": -78.999834,
    "imagen": "a2grande.jpg",
    "imagenp": "a2grande_p.jpg",
    "codigo_uso": "EQ1",
    "uso": "Zona de Servicios Sociales",
    "dbmax7": 55,
    "dbmax21": 45
  },
  {
    "id": "SCP06",
    "nombre": "Remigio Crespo",
    "ubicacion": "Sensor ubicado en la esquina de la Av. Remigio Crespo y calle Agustín Cueva",
    "lat": -2.905497546283453,
    "lon": -79.01160042466029,
    "imagen": "nodo_remigiocrespo.jpg",
    "imagenp": "nodo_remigiocrespop.jpg",
    "codigo_uso": "CM",
    "uso": "Zona Comercial",
    "dbmax7": 60,
    "dbmax21": 50
  },
  {
    "id": "SCP07",
    "nombre": "Estadio Serrano Aguilar",
    "ubicacion": "Sensor ubicado en la esquina de la Av. del Estadio y Av. Manuel J. Calle",
    "lat": -2.9073393515103882,
    "lon": -79.00498748637939,
    "imagen": "nodo_estadio.jpg",
    "imagenp": "nodo_estadiop.jpg",
    "codigo_uso": "CM",
    "uso": "Zona Comercial",
    "dbmax7": 60,
    "dbmax21": 50
  },
  {
    "id": "SCP08",
    "nombre": "Mercado El Arenal",
    "ubicacion": "Sensor ubicado en la Av. de las Américas y Av. Remigio Crespo",
    "lat": -2.897922527658767,
    "lon": -79.02575557554627,
    "imagen": "nodo_elarenal.jpg",
    "imagenp": "nodo_elarenalp.jpg",
    "codigo_uso": "CM",
    "uso": "Zona Comercial",
    "dbmax7": 60,
    "dbmax21": 50
  },
  {
    "id": "SCP09",
    "nombre": "Parque Industrial",
    "ubicacion": "Sensor ubicado en la calle Paseo Río Machángara y Av. Octavio Chacón",
    "lat": -2.875771488057586,
    "lon": -78.98151656115914,
    "imagen": "nodo_parqueindustrial.jpg",
    "imagenp": "nodo_parqueindustrialp.jpg",
    "codigo_uso": "ID3/ID4",
    "uso": "Zona Industrial",
    "dbmax7": 70,
    "dbmax21": 65
  },
  {
    "id": "SCP13",
    "nombre": "Av. Don Bosco",
    "ubicacion": "Sensor ubicado en la esquina de la Av. Don Bosco y Av. Loja",
    "lat": -2.913311,
    "lon": -79.031024,
    "imagen": "nodo_donbosco.jpg",
    "imagenp": "nodo_donboscop.jpg",
    "codigo_uso": "R1",
    "uso": "Zona Residencial",
    "dbmax7": 55,
    "dbmax21": 45
  },
  {
    "id": "SCP16",
    "nombre": "Av. Los Andes",
    "ubicacion": "Sensor ubicado en la esquina de la Av. Los Andes y Av. del Cóndor",
    "lat": -2.891511,
    "lon": -78.976223,
    "imagen": "nodo_losandes.jpg",
    "imagenp": "nodo_losandesp.jpg",
    "codigo_uso": "R1",
    "uso": "Zona Residencial",
    "dbmax7": 55,
    "dbmax21": 45
  },
  {
    "id": "SCP17",
    "nombre": "Redondel Muñecas de Piedra",
    "ubicacion": "Sensor ubicado en el redondel de la Av. González Suárez y Panamericana Norte",
    "lat": -2.883731,
    "lon": -78.956357,
    "imagen": "nodo_munecaspiedra.jpg",
    "imagenp": "nodo_munecaspiedrap.jpg",
    "codigo_uso": "R1",
    "uso": "Zona Residencial",
    "dbmax7": 55,
    "dbmax21": 45
  }
]
